Título,Moneda,Precio,Dirección,Enlace,Latitud,Longitud,Place_ID
Edificio Midtown Santiago Vista Oriente Piso 6,$,305000,"Arturo Prat 621, San Diego, Santiago, RM (Metropolitana)",https://www.portalinmobiliario.com/MLC-2816956702-edificio-midtown-santiago-vista-oriente-piso-6-_JM#position=-1&search_layout=grid&type=item&tracking_id=4dbd0815-c510-452e-9c77-e7596ef96bebBB=1&c_component=bb&c_pos=1&c_campaign=bb&c_client=search,-33.4529961,-70.6486529,ChIJT3cKWQzFYpYRwle_dMz0JmA
"Paso El Roble 50 - Departamento 2d2b(4c), La Florida",$,412374,"Paso El Roble 50, La Florida, Plaza Vespucio, La Florida, RM (Metropolitana)",https://www.portalinmobiliario.com/MLC-1529631929-paso-el-roble-50-departamento-2d2b4c-la-florida-_JM#position=-1&search_layout=grid&type=item&tracking_id=83016cea-05ab-4d31-ac80-0bd3a92ae86dBB=1&c_component=bb&c_pos=1&c_campaign=bb&c_client=search,-33.5171542,-70.6044829,ChIJRWfCL2TQYpYRTD1C711aAh8
Exclusivo Departamento Nuevo En El Mejor Lugar De Las Condes,$,900000,"Asturias 77, Las Condes, Santiago, Chile, Metro Escuela Militar, Las Condes, RM (Metropolitana)",https://www.portalinmobiliario.com/MLC-1550406807-exclusivo-departamento-nuevo-en-el-mejor-lugar-de-las-condes-_JM#position=-1&search_layout=grid&type=item&tracking_id=ea9fa2c5-e94b-452e-b9c2-385402d11cafBB=1&c_component=bb&c_pos=1&c_campaign=bb&c_client=search,-33.4153089,-70.58578589999999,ChIJHabRUejPYpYRLoiRk3yQ9rg
Departamento Nuevo Tipo Estudio,$,294667,"Gorbea 2159, Santiago, Chile, Barrio República, Santiago, RM (Metropolitana)",https://www.portalinmobiliario.com/MLC-2820276394-departamento-nuevo-tipo-estudio-_JM#position=-1&search_layout=grid&type=item&tracking_id=9169633f-fab0-4776-a693-3d4c2ab1bd4fBB=2&c_component=bb&c_pos=2&c_campaign=bb&c_client=search,-33.4529308,-70.66564319999999,ChIJw5u4cQHFYpYRT5GDbhtt9Ss
"Paso El Roble 50 - Departamento 2d2b(4c), La Florida",$,412374,"Paso El Roble 50, La Florida, Plaza Vespucio, La Florida, RM (Metropolitana)",https://www.portalinmobiliario.com/MLC-1529631929-paso-el-roble-50-departamento-2d2b4c-la-florida-_JM#position=-1&search_layout=grid&type=item&tracking_id=08659cc2-25d7-4be2-a01a-f29fb4eef9baBB=2&c_component=bb&c_pos=2&c_campaign=bb&c_client=search,-33.5171542,-70.6044829,ChIJRWfCL2TQYpYRTD1C711aAh8
Edificio Carnot Vista Suroriente Piso 2,$,320000,"Carnot 1069, El Llano, San Miguel, RM (Metropolitana)",https://www.portalinmobiliario.com/MLC-2797679866-edificio-carnot-vista-suroriente-piso-2-_JM#position=-1&search_layout=grid&type=item&tracking_id=4e962813-90d5-42df-8d2e-dc737e98bfb6BB=2&c_component=bb&c_pos=2&c_campaign=bb&c_client=search,-33.4810108,-70.6474254,ChIJC97fTzbFYpYRADmXNsBpD4E
"José Domingo Cañas 445 - Departamento 1d1b, Ñuñoa",$,474025,"José Domingo Cañas 445, Ñuñoa, Metro Irarrázaval, Ñuñoa, RM (Metropolitana)",https://www.portalinmobiliario.com/MLC-1552454871-jose-domingo-canas-445-departamento-1d1b-nunoa-_JM#position=-1&search_layout=grid&type=item&tracking_id=3827231c-7db1-454b-8078-855d5e4020eeBB=3&c_component=bb&c_pos=3&c_campaign=bb&c_client=search,-33.4553844,-70.6254902,ChIJeYOWp2PFYpYRoE2peJSxupo
"Ejército Libertador 634 - Departamento 2d2b(4c), Santiago",$,490172,"Av. Ejército Libertador 634, Ejército - Toesca, Santiago, RM (Metropolitana)",https://www.portalinmobiliario.com/MLC-2782012794-ejercito-libertador-634-departamento-2d2b4c-santiago-_JM#position=-1&search_layout=grid&type=item&tracking_id=be1d5d78-10db-43df-aacd-bd4869ddc84cBB=3&c_component=bb&c_pos=3&c_campaign=bb&c_client=search,-33.4529468,-70.65855,ChIJMWK_5gXFYpYRoOo5Ceub0Hs
"Paso El Roble 50 - Departamento 2d2b(4c), La Florida",$,412374,"Paso El Roble 50, La Florida, Plaza Vespucio, La Florida, RM (Metropolitana)",https://www.portalinmobiliario.com/MLC-1529631929-paso-el-roble-50-departamento-2d2b4c-la-florida-_JM#position=-1&search_layout=grid&type=item&tracking_id=c70602a1-9c2c-4339-9044-fbfc1fcd3fafBB=3&c_component=bb&c_pos=3&c_campaign=bb&c_client=search,-33.5171542,-70.6044829,ChIJRWfCL2TQYpYRTD1C711aAh8
Edificio Home Inclusive Carmen Vista Norte Piso 2,$,320850,"Carmen 668, Barrio Diez de Julio, Santiago, RM (Metropolitana)",https://www.portalinmobiliario.com/MLC-1561991909-edificio-home-inclusive-carmen-vista-norte-piso-2-_JM#position=-1&search_layout=grid&type=item&tracking_id=47f17e92-e189-40ae-90f5-c2267e5985adBB=4&c_component=bb&c_pos=4&c_campaign=bb&c_client=search,-33.4518732,-70.6405217,ChIJ2dxTicvFYpYRotEpfr0QqAo
"Departamento En Arriendo Con Vista A La Cordillera, Ñuñoa",$,811540,"San Eugenio 450, Ñuñoa, Chile, Parque San Eugenio - Metro Ñuble, Ñuñoa, RM (Metropolitana)",https://www.portalinmobiliario.com/MLC-1561627403-departamento-en-arriendo-con-vista-a-la-cordillera-nunoa-_JM#position=-1&search_layout=grid&type=item&tracking_id=bb90e223-2b31-4f36-bda6-66c3ef70132aBB=4&c_component=bb&c_pos=4&c_campaign=bb&c_client=search,-33.4637003,-70.62396009999999,ChIJc8Cg7jrFYpYRD8ctah68PtA
Edificio Carnot Piso 7,$,310000,"Carnot 1069, El Llano, San Miguel, RM (Metropolitana)",https://www.portalinmobiliario.com/MLC-1559557339-edificio-carnot-piso-7-_JM#position=-1&search_layout=grid&type=item&tracking_id=2fe35849-4798-4b11-9928-c24f24c3c8e6BB=4&c_component=bb&c_pos=4&c_campaign=bb&c_client=search,-33.4810108,-70.6474254,ChIJC97fTzbFYpYRADmXNsBpD4E
Departamento Nuevo Tipo Estudio,$,294667,"Gorbea 2159, Santiago, Chile, Barrio República, Santiago, RM (Metropolitana)",https://www.portalinmobiliario.com/MLC-2820276394-departamento-nuevo-tipo-estudio-_JM#position=-1&search_layout=grid&type=item&tracking_id=24e57d01-fe82-42fa-91f3-4bbd5237ceccBB=5&c_component=bb&c_pos=5&c_campaign=bb&c_client=search,-33.4529308,-70.66564319999999,ChIJw5u4cQHFYpYRT5GDbhtt9Ss
Boldo Club de Campo,$,1460587,"Av. Club De Campo 194, Vitacura, Tabancura, Vitacura, RM (Metropolitana)",https://www.portalinmobiliario.com/arriendo/departamento/vitacura-metropolitana/11476-boldo-club-de-campo-nva#polycard_client=search-nordic&position=2&search_layout=grid&type=item&tracking_id=91609e70-c39d-47f1-977b-e60cb67da5b3,-33.3728866,-70.5217205,ChIJ_dTlaT_LYpYRNWTXfXv3fMc
"Santa Rosa 237 - Departamento 1d1b, Santiago",$,285468,"Santa Rosa 237, Santa Isabel, Santiago, RM (Metropolitana)",https://www.portalinmobiliario.com/MLC-2812283662-santa-rosa-237-departamento-1d1b-santiago-_JM#position=-1&search_layout=grid&type=item&tracking_id=5d9269ab-1e90-4061-b6ff-6c78264621f2BB=5&c_component=bb&c_pos=5&c_campaign=bb&c_client=search,-33.4470638,-70.64537419999999,ChIJhRv_0ArFYpYRpymHJYdJooQ
Somma Parque Bustamante - Metro Irarrázaval Ñuñoa,$,518140,"San Eugenio 401, Parque San Eugenio - Metro Ñuble, Ñuñoa, RM (Metropolitana)",https://www.portalinmobiliario.com/arriendo/departamento/nunoa-metropolitana/888888366-somma-parque-bustamante-nva#polycard_client=search-nordic&position=1&search_layout=grid&type=item&tracking_id=0ed52072-cd0a-4a3c-81cb-15687faeafb9,-33.4637003,-70.62396009999999,ChIJc8Cg7jrFYpYRD8ctah68PtA
Boldo Club de Campo,$,1460587,"Av. Club De Campo 194, Vitacura, Tabancura, Vitacura, RM (Metropolitana)",https://www.portalinmobiliario.com/arriendo/departamento/vitacura-metropolitana/11476-boldo-club-de-campo-nva#polycard_client=search-nordic&position=2&search_layout=grid&type=item&tracking_id=cff5e6ab-e159-47da-8dfe-2905a53508a1,-33.3728866,-70.5217205,ChIJ_dTlaT_LYpYRNWTXfXv3fMc
Spot Nueva Kennedy,$,730294,"Av. Manquehue Nte. 958, Las Condes, Parque Arauco, Las Condes, RM (Metropolitana)",https://www.portalinmobiliario.com/arriendo/departamento/las-condes-metropolitana/11477-spot-nueva-kennedy-nva#polycard_client=search-nordic&position=3&search_layout=grid&type=item&tracking_id=cfc72af2-1887-4b63-ae5b-ae8d62abc1d9,-33.3991987,-70.57135029999999,ChIJ3bQIbtPPYpYRHdV3dzX_lYM
Mirador Gamero,$,320000,"Gamero 1363, Hospitales, Independencia, RM (Metropolitana)",https://www.portalinmobiliario.com/arriendo/departamento/independencia-metropolitana/888888351-portico-gamero-nva#polycard_client=search-nordic&position=7&search_layout=grid&type=item&tracking_id=92adb10e-71d0-4d45-aa54-5e8c68d5d9e9,-33.42086310000001,-70.6587472,ChIJ0b36KIDFYpYRZFQ4doOsSj4
Morandé Sur,$,270000,"Morandé 776, Centro Histórico de Santiago, Santiago, RM (Metropolitana)",https://www.portalinmobiliario.com/arriendo/departamento/santiago-metropolitana/888888357-morande-sur-nva#polycard_client=search-nordic&position=5&search_layout=grid&type=item&tracking_id=38eefe4f-9a30-4e39-bc0e-26c155d70fb9,-33.4346346,-70.6545852,ChIJ6Q2O3rrFYpYRwpmRGrypf-Q
Vespucio Switch,$,974560,"Av. Américo Vespucio Sur 345, Metro Escuela Militar, Las Condes, RM (Metropolitana)",https://www.portalinmobiliario.com/arriendo/departamento/las-condes-metropolitana/888888376-vespucio-switch-nva#polycard_client=search-nordic&position=9&search_layout=grid&type=item&tracking_id=c6e5c501-cb3a-4b4e-9afb-5533a6d61c67,-33.4174023,-70.5836119,ChIJtcMsohnPYpYR_IXSuaKSuuE
Activa Vicuña Mackenna Poniente,$,365000,"Av. Vicuña Mackenna Pte. 6315, Metro Mirador, La Florida, RM (Metropolitana)",https://www.portalinmobiliario.com/arriendo/departamento/la-florida-metropolitana/888888355-activa-vicuna-mackenna-poniente-nva#polycard_client=search-nordic&position=10&search_layout=grid&type=item&tracking_id=8651957a-e5a1-4be1-9150-3c6de77d7771,-33.5140416,-70.60869629999999,ChIJYzIli2_QYpYR3ZsMco9uLuU
Maestra Gabriela,$,405000,"Los Cipreses 3422, Luis Matte Larraín, Puente Alto, RM (Metropolitana)",https://www.portalinmobiliario.com/arriendo/departamento/puente-alto-metropolitana/888888362-maestra-gabriela-nva#polycard_client=search-nordic&position=11&search_layout=grid&type=item&tracking_id=8a206f2e-c4a1-48e2-91e9-7bcc4747c321,-33.5809289,-70.6063903,ChIJ0UsNpEXXYpYRn2IfijdJHqo
Vespucio Switch,$,974560,"Av. Américo Vespucio Sur 345, Metro Escuela Militar, Las Condes, RM (Metropolitana)",https://www.portalinmobiliario.com/arriendo/departamento/las-condes-metropolitana/888888376-vespucio-switch-nva#polycard_client=search-nordic&position=9&search_layout=grid&type=item&tracking_id=f2b01a25-07b4-40f5-aa50-da925d8172af,-33.4174023,-70.5836119,ChIJtcMsohnPYpYR_IXSuaKSuuE
Alma Hipódromo,$,390000,"Hipódromo Chile 1631, Plaza Chacabuco, Independencia, RM (Metropolitana)",https://www.portalinmobiliario.com/arriendo/departamento/independencia-metropolitana/888888379-alma-hipodromo-nva#polycard_client=search-nordic&position=13&search_layout=grid&type=item&tracking_id=6391956a-79d3-429a-9388-784018748df1,-33.40650189999999,-70.6632357,ChIJ2-j02NXFYpYRX_pApSkMw2Y
Maestra Gabriela,$,405000,"Los Cipreses 3422, Luis Matte Larraín, Puente Alto, RM (Metropolitana)",https://www.portalinmobiliario.com/arriendo/departamento/puente-alto-metropolitana/888888362-maestra-gabriela-nva#polycard_client=search-nordic&position=11&search_layout=grid&type=item&tracking_id=75469b77-c0c5-4111-9f7f-96793d25be7e,-33.5809289,-70.6063903,ChIJ0UsNpEXXYpYRn2IfijdJHqo
Álvarez Toledo,$,395000,"Álvarez De Toledo 978, El Llano, San Miguel, RM (Metropolitana)",https://www.portalinmobiliario.com/arriendo/departamento/san-miguel-metropolitana/888888347-alvarez-toledo-nva#polycard_client=search-nordic&position=12&search_layout=grid&type=item&tracking_id=590bb7f8-7e0e-4b6f-a85a-e8619531b21d,-33.4905017,-70.6490673,ChIJaWBhF8vaYpYR3PSANYV82cQ
Alma Hipódromo,$,390000,"Hipódromo Chile 1631, Plaza Chacabuco, Independencia, RM (Metropolitana)",https://www.portalinmobiliario.com/arriendo/departamento/independencia-metropolitana/888888379-alma-hipodromo-nva#polycard_client=search-nordic&position=13&search_layout=grid&type=item&tracking_id=07e8dc7f-9389-4b90-8fd4-cd83ff163357,-33.40650189999999,-70.6632357,ChIJ2-j02NXFYpYRX_pApSkMw2Y
Florida Capital,$,345000,"Froilán Roa 5746, La Florida, La Florida, RM (Metropolitana)",https://www.portalinmobiliario.com/arriendo/departamento/la-florida-metropolitana/888888398-florida-capital-nva#polycard_client=search-nordic&position=14&search_layout=grid&type=item&tracking_id=6ffa887f-cb62-4704-bc5b-c513a5a9f4b1,-33.5110859,-70.6014268,ChIJLd-FLE3RYpYRRQ9JV4IUPd4
Zañartu Capital,$,370000,"Zañartu 1145, Estadio Nacional, Ñuñoa, RM (Metropolitana)",https://www.portalinmobiliario.com/arriendo/departamento/nunoa-metropolitana/888888374-zanartu-capital-nva#polycard_client=search-nordic&position=18&search_layout=grid&type=item&tracking_id=7075a7db-78c0-4718-a14f-a264c31f65fe,-33.4733481,-70.6205368,ChIJm1j59ffPYpYRXwIVE4O_LTw
Edificio Santa Rosa,$,240000,"Av. Sta. Rosa 1185, Santiago, Parque O'Higgins, Santiago, RM (Metropolitana)",https://www.portalinmobiliario.com/arriendo/departamento/santiago-metropolitana/888888390-edificio-santa-rosa-nva#polycard_client=search-nordic&position=16&search_layout=grid&type=item&tracking_id=cfe064ee-7400-44ae-9bcf-808db88dd30c,-33.460353,-70.64316269999999,ChIJW3PfhGzFYpYRWKbtQY92L4Y
Nuevo Oriente II,$,320000,"Sta. Elena 1496, Santiago, Bogotá - Sierra Bella, Santiago, RM (Metropolitana)",https://www.portalinmobiliario.com/arriendo/departamento/santiago-metropolitana/888888389-nuevo-oriente-ii-nva#polycard_client=search-nordic&position=17&search_layout=grid&type=item&tracking_id=635305d5-0736-4849-b5c9-c18905062be8,-33.4488897,-70.6692655,ChIJL68lBEHFYpYRMQkPQDzVdYQ
Zañartu Capital,$,370000,"Zañartu 1145, Estadio Nacional, Ñuñoa, RM (Metropolitana)",https://www.portalinmobiliario.com/arriendo/departamento/nunoa-metropolitana/888888374-zanartu-capital-nva#polycard_client=search-nordic&position=18&search_layout=grid&type=item&tracking_id=cfd119bb-06bf-43c2-b07f-ac34581860b7,-33.4733481,-70.6205368,ChIJm1j59ffPYpYRXwIVE4O_LTw
Edificio Claudio Gay,$,290000,"Claudio Gay 2547, Barrio República, Santiago, RM (Metropolitana)",https://www.portalinmobiliario.com/arriendo/departamento/santiago-metropolitana/99999925-edificio-claudio-gray-nva#polycard_client=search-nordic&position=22&search_layout=grid&type=item&tracking_id=907286d2-e065-4ef7-84cf-0f27083dee07,-33.4563421,-70.67101749999999,ChIJmYqLXPfFYpYRPDHdNyDq8Bw
Home Inclusive Carmen,$,280833,"Carmen 668, Santiago, Barrio Diez de Julio, Santiago, RM (Metropolitana)",https://www.portalinmobiliario.com/arriendo/departamento/santiago-metropolitana/888888386-home-inclusive-carmen-nva#polycard_client=search-nordic&position=23&search_layout=grid&type=item&tracking_id=13fbc9b2-da4b-48e9-8be4-482073851ace,-33.4518732,-70.6405217,ChIJ2dxTicvFYpYRotEpfr0QqAo
Ciudadano Echaurren,$,300000,"Echaurren 118, Barrio República, Santiago, RM (Metropolitana)",https://www.portalinmobiliario.com/arriendo/departamento/santiago-metropolitana/999999933-ciudadano-echaurren-nva#polycard_client=search-nordic&position=21&search_layout=grid&type=item&tracking_id=9b4b82d0-7425-4669-a0cd-de1cd6d1b63e,-33.4497869,-70.6661487,ChIJK2cf9QDFYpYRSfe-zAH5FnM
Edificio Claudio Gay,$,290000,"Claudio Gay 2547, Barrio República, Santiago, RM (Metropolitana)",https://www.portalinmobiliario.com/arriendo/departamento/santiago-metropolitana/99999925-edificio-claudio-gray-nva#polycard_client=search-nordic&position=22&search_layout=grid&type=item&tracking_id=4da43e6b-6f22-46d2-a83b-ceb979b0d800,-33.4563421,-70.67101749999999,ChIJmYqLXPfFYpYRPDHdNyDq8Bw
Edificio Lia Aguirre,$,260000,"Lía Aguirre 95, Plaza Vespucio, La Florida, RM (Metropolitana)",https://www.portalinmobiliario.com/arriendo/departamento/la-florida-metropolitana/888888353-edificio-lia-aguirre-nva#polycard_client=search-nordic&position=26&search_layout=grid&type=item&tracking_id=82e72956-e544-4247-861a-e388753e21b1,-33.52258630000001,-70.6000042,EjlMw61hIEFndWlycmUgOTUsIExhIEZsb3JpZGEsIFJlZ2nDs24gTWV0cm9wb2xpdGFuYSwgQ2hpbGUiMBIuChQKEgl5c2Q3YNBilhGvhkiOp56YoRBfKhQKEgmbOdciYtBilhFs4l6W1YRmyA
Carrera Capital,$,290000,"José Miguel Carrera 68, Ejército - Toesca, Santiago, RM (Metropolitana)",https://www.portalinmobiliario.com/arriendo/departamento/santiago-metropolitana/888888367-carrera-capital-nva#polycard_client=search-nordic&position=24&search_layout=grid&type=item&tracking_id=cc1dd537-c50a-48ef-ad53-23d38173557d,-33.4484466,-70.6634321,ChIJLd-5rADFYpYR1nNHz2yrVso
Activa Juan Mitjans,$,550000,"Juan Mitjans 135, Metro Rodrigo de Araya, Macul, RM (Metropolitana)",https://www.portalinmobiliario.com/arriendo/departamento/macul-metropolitana/888888360-activa-juan-mitjans-nva#polycard_client=search-nordic&position=25&search_layout=grid&type=item&tracking_id=165169a4-face-405c-b02e-4ea8552c3e76,-33.47813550000001,-70.6201397,ChIJVdlIyPjPYpYReC-XDES5lLg
Alto Conde,$,215000,"Conde Del Maule 4160, San Alberto Hurtado, Estación Central, RM (Metropolitana)",https://www.portalinmobiliario.com/arriendo/departamento/estacion-central-metropolitana/888888377-alto-conde-nva#polycard_client=search-nordic&position=29&search_layout=grid&type=item&tracking_id=bc82ccc1-b4af-4ade-8b00-d7153e65bd99,-33.453186,-70.6931239,ChIJnadIbr_FYpYR5PpZ6sZ9oE8
Home Inclusive Ecuador,$,219585,"Gral. Amengual 0148, Metro Ecuador, Estación Central, RM (Metropolitana)",https://www.portalinmobiliario.com/arriendo/departamento/estacion-central-metropolitana/888888383-home-inclusive-ecuador-nva#polycard_client=search-nordic&position=27&search_layout=grid&type=item&tracking_id=9acb0c58-ab42-495b-93fb-ede47d9d0557,-33.4536898,-70.69827769999999,ChIJAcPZB4rEYpYRphXoq9UWaeM
Nuevo Oriente I,$,220000,"Sta. Elena 1486, Santiago, Bogotá - Sierra Bella, Santiago, RM (Metropolitana)",https://www.portalinmobiliario.com/arriendo/departamento/santiago-metropolitana/888888388-nuevo-oriente-i-nva#polycard_client=search-nordic&position=28&search_layout=grid&type=item&tracking_id=6d26fc4b-57b6-43c3-b852-e2e73cb7b30d,-33.4488897,-70.6692655,ChIJL68lBEHFYpYRMQkPQDzVdYQ
Alto Conde,$,215000,"Conde Del Maule 4160, San Alberto Hurtado, Estación Central, RM (Metropolitana)",https://www.portalinmobiliario.com/arriendo/departamento/estacion-central-metropolitana/888888377-alto-conde-nva#polycard_client=search-nordic&position=29&search_layout=grid&type=item&tracking_id=07946876-9149-4856-a349-aab84fe38a1d,-33.453186,-70.6931239,ChIJnadIbr_FYpYR5PpZ6sZ9oE8
Espacio Oriente II Torre A,$,260000,"Sta. Elena 1278, Santiago, Bogotá - Sierra Bella, Santiago, RM (Metropolitana)",https://www.portalinmobiliario.com/arriendo/departamento/santiago-metropolitana/888888391-espacio-oriente-ii-torre-a-nva#polycard_client=search-nordic&position=30&search_layout=grid&type=item&tracking_id=c9c9b996-9173-4fca-b6fc-4117012b71c5,-33.4488897,-70.6692655,ChIJL68lBEHFYpYRMQkPQDzVdYQ
Activa Cerro Blanco,$,475000,"Dr. Raimundo Charlin 655, Cerro Blanco, Recoleta, RM (Metropolitana)",https://www.portalinmobiliario.com/arriendo/departamento/recoleta-metropolitana/888888365-activa-cerro-blanco-nva#polycard_client=search-nordic&position=31&search_layout=grid&type=item&tracking_id=2e3ad196-9487-42c3-8ce2-309bcb8f8ea3,-33.4230824,-70.64604779999999,ChIJW9TkA8DFYpYRfS2NBNHKlqg
Lofty,$,300000,"Av. Vicuña Mackenna Ote. 6711, Plaza Vespucio, La Florida, RM (Metropolitana)",https://www.portalinmobiliario.com/arriendo/departamento/la-florida-metropolitana/888888359-lofty-nva#polycard_client=search-nordic&position=32&search_layout=grid&type=item&tracking_id=aba49e71-b97e-4ceb-a68c-028c1bec338d,-33.5190374,-70.598292,EkNQbC4gVmVzcHVjaW8gNjcxMSwgODI0MDAwMCBMYSBGbG9yaWRhLCBSZWdpw7NuIE1ldHJvcG9saXRhbmEsIENoaWxlIjESLwoUChIJx5A9pmDQYpYRl-LwGzVUxhcQtzQqFAoSCasXeJhg0GKWEWKIExOVZ62q
Home Inclusive Independencia,$,278440,"Escanilla 1035, Hospitales, Independencia, RM (Metropolitana)",https://www.portalinmobiliario.com/arriendo/departamento/independencia-metropolitana/888888382-home-inclusive-independencia-nva#polycard_client=search-nordic&position=33&search_layout=grid&type=item&tracking_id=2f3b2e89-9d27-495f-8854-924c141a55a1,-33.4187474,-70.6605696,ChIJD6Ok487FYpYRMrp0avcLYF4
Portugal,$,385000,"Av. Portugal 676, Barrio Diez de Julio, Santiago, RM (Metropolitana)",https://www.portalinmobiliario.com/arriendo/departamento/santiago-metropolitana/888888371-portugal-nva#polycard_client=search-nordic&position=34&search_layout=grid&type=item&tracking_id=3868cf99-222d-4b52-87cc-33f329738132,-33.4508971,-70.6343431,ChIJR9iEYgDFYpYRsf5Lrj94PCs
Home Inclusive Ejército,$,315000,"Av. Ejército Libertador 71, Santiago, Ejército - Toesca, Santiago, RM (Metropolitana)",https://www.portalinmobiliario.com/arriendo/departamento/santiago-metropolitana/888888385-home-inclusive-ejercito-nva#polycard_client=search-nordic&position=35&search_layout=grid&type=item&tracking_id=a8f2e453-addc-45fc-867c-20fa4d4b9f06,-33.4478782,-70.6616911,ChIJ17a3ZwfFYpYRlbhp-XumDsY
Exequiel Fernández 2000,$,415000,"Exequiel Fernández 2000, Estadio Nacional, Ñuñoa, RM (Metropolitana)",https://www.portalinmobiliario.com/arriendo/departamento/nunoa-metropolitana/888888358-exequiel-fernandez-2000-nva#polycard_client=search-nordic&position=36&search_layout=grid&type=item&tracking_id=1ada0271-163e-4f3a-abeb-12db01a9f697,-33.4734492,-70.6010993,ChIJCUOn_ebPYpYR80svifT7hAQ
Augusto Leguía,$,780000,"Augusto Leguía Nte. 70, Barrio El Golf, Las Condes, RM (Metropolitana)",https://www.portalinmobiliario.com/arriendo/departamento/las-condes-metropolitana/888888373-augusto-leguia-nva#polycard_client=search-nordic&position=37&search_layout=grid&type=item&tracking_id=dce4055f-0ed7-45f1-9d76-bdb2da6e2729,-33.4160256,-70.5977343,ChIJV8yNVBXPYpYRNw_Po6puQ7c
Carnot,$,310000,"Carnot 1069, San Miguel, El Llano, San Miguel, RM (Metropolitana)",https://www.portalinmobiliario.com/arriendo/departamento/san-miguel-metropolitana/888888397-carnot-nva#polycard_client=search-nordic&position=38&search_layout=grid&type=item&tracking_id=4ae95a24-3d6e-4d33-b272-934ad8202f5b,-33.4798819,-70.6490425,ChIJNed4FO7FYpYRQ7W8u7SE9go
Vicuña Urban,$,330000,"Av. Vicuña Mackenna Pte. 6650, Plaza Vespucio, La Florida, RM (Metropolitana)",https://www.portalinmobiliario.com/arriendo/departamento/la-florida-metropolitana/888888346-vicuna-urban-nva#polycard_client=search-nordic&position=42&search_layout=grid&type=item&tracking_id=4243db01-466e-4f34-9c88-22bf56efce7f,-33.5163442,-70.6058316,ChIJ0xEQsWXQYpYRaZO8Rr0Zres
Mirador Santiago,$,260000,"Av. Ejército Libertador 50, Ejército - Toesca, Santiago, RM (Metropolitana)",https://www.portalinmobiliario.com/arriendo/departamento/santiago-metropolitana/888888381-mirador-santiago-nva#polycard_client=search-nordic&position=40&search_layout=grid&type=item&tracking_id=25d1cb67-50b2-47cf-93d0-c527d0dcf507,-33.4529468,-70.65855,ChIJMWK_5gXFYpYRoOo5Ceub0Hs
Edificio Altavista,$,275000,"Rivas 581, Rodrigo de Araya, San Joaquín, RM (Metropolitana)",https://www.portalinmobiliario.com/arriendo/departamento/san-joaquin-metropolitana/888888369-edificio-altavista-nva#polycard_client=search-nordic&position=41&search_layout=grid&type=item&tracking_id=48e08b75-10a8-4c4f-9713-59afe3c63e24,-33.477516,-70.622314,ChIJIeoeI1bFYpYRfr5dsZ-fU_s
Vicuña Urban,$,330000,"Av. Vicuña Mackenna Pte. 6650, Plaza Vespucio, La Florida, RM (Metropolitana)",https://www.portalinmobiliario.com/arriendo/departamento/la-florida-metropolitana/888888346-vicuna-urban-nva#polycard_client=search-nordic&position=42&search_layout=grid&type=item&tracking_id=71b9fdc0-6e98-4a11-8081-036e68a3c979,-33.5163442,-70.6058316,ChIJ0xEQsWXQYpYRaZO8Rr0Zres
Concon,$,255000,"Coronel Souper 4400, San Alberto Hurtado, Estación Central, RM (Metropolitana)",https://www.portalinmobiliario.com/arriendo/departamento/estacion-central-metropolitana/888888342-concon-nva#polycard_client=search-nordic&position=43&search_layout=grid&type=item&tracking_id=3c9509c7-9587-429d-b6fc-99156bb0da19,-33.4581576,-70.6948506,ChIJ7z_2YYvEYpYRJQabzhd7bWs
Plaza Conde del Maule,$,235000,"Conde Del Maule 4631, Metro Ecuador, Estación Central, RM (Metropolitana)",https://www.portalinmobiliario.com/arriendo/departamento/estacion-central-metropolitana/888888352-plaza-conde-del-maule-nva#polycard_client=search-nordic&position=44&search_layout=grid&type=item&tracking_id=c89bd412-1461-4898-987d-f5f20cade304,-33.4544431,-70.6997944,ChIJA0xN5YnEYpYRxCijDb_ZIHU
Alameda Park,$,280000,"Av. Libertador Bernardo O'higgins 4320, San Alberto Hurtado, Estación Central, RM (Metropolitana)",https://www.portalinmobiliario.com/arriendo/departamento/estacion-central-metropolitana/888888354-alameda-park-nva#polycard_client=search-nordic&position=48&search_layout=grid&type=item&tracking_id=311a10af-b6f6-456c-880c-8097def80476,-33.4551019,-70.69486770000002,ChIJMe2vQi_FYpYRTHHEDspHDkY
Matucana,$,295000,"Avenida Matucana 31, Barrio Yungay, Santiago, RM (Metropolitana)",https://www.portalinmobiliario.com/arriendo/departamento/santiago-metropolitana/888888350-matucana-nva#polycard_client=search-nordic&position=1&search_layout=grid&type=item&tracking_id=17d692cf-eef6-4c2f-9414-c3fa53649032,-33.4487912,-70.67896979999999,ChIJi7iGp1fEYpYRSWWtKx-Q-XQ
Nueva Valdés,$,263000,"Nueva De Valdes - Nueva De Valdés 657, Santiago, San Diego, Santiago, RM (Metropolitana)",https://www.portalinmobiliario.com/arriendo/departamento/santiago-metropolitana/888888392-nueva-valdes-nva#polycard_client=search-nordic&position=2&search_layout=grid&type=item&tracking_id=baa5b341-0494-4c18-b06e-da6e31d2167d,-33.4528262,-70.64571889999999,ChIJGTF80wzFYpYRsDQcPPnB_wU
Mirador José Ureta,$,270000,"José Ureta 139, Lo Ovalle, La Cisterna, RM (Metropolitana)",https://www.portalinmobiliario.com/arriendo/departamento/la-cisterna-metropolitana/888888345-conecta-ureta-nva#polycard_client=search-nordic&position=3&search_layout=grid&type=item&tracking_id=93ac3931-5ec0-4acd-8fe0-3ead72c0664f,-33.5180026,-70.6574756,ChIJPfcT6kXbYpYRhv7q3hc-ol4
Midtown Santiago,$,305000,"Arturo Prat 621, Santiago, San Diego, Santiago, RM (Metropolitana)",https://www.portalinmobiliario.com/arriendo/departamento/santiago-metropolitana/888888394-midtown-santiago-nva#polycard_client=search-nordic&position=4&search_layout=grid&type=item&tracking_id=ebfc539f-cbcc-4b0f-8b79-a51dc7ac9fdb,-33.4529961,-70.6486529,ChIJT3cKWQzFYpYRwle_dMz0JmA
Amengual,$,375000,"General Amengual 102, San Alberto Hurtado, Estación Central, RM (Metropolitana)",https://www.portalinmobiliario.com/arriendo/departamento/estacion-central-metropolitana/888888344-amengual-nva#polycard_client=search-nordic&position=5&search_layout=grid&type=item&tracking_id=af6fa61f-7960-43ee-af7f-10133b4a1979,-33.4571797,-70.69670099999999,ChIJcRRO8FjFYpYRWcnbiyMkWm4
Plaza Central,$,210000,"Av. Ecuador 4626, Metro Ecuador, Estación Central, RM (Metropolitana)",https://www.portalinmobiliario.com/arriendo/departamento/estacion-central-metropolitana/888888378-plaza-central-nva#polycard_client=search-nordic&position=6&search_layout=grid&type=item&tracking_id=dddc0dd5-8bc4-43d7-96eb-0bfb17a7a8e4,-33.4536739,-70.699393,ChIJD8PQ_4nEYpYRG0RS2NmcHZc
Lira 254,$,325000,"Lira 254, Santiago, Santa Isabel, Santiago, RM (Metropolitana)",https://www.portalinmobiliario.com/arriendo/departamento/santiago-metropolitana/888888399-lira-254-nva#polycard_client=search-nordic&position=7&search_layout=grid&type=item&tracking_id=12e947a2-0131-4417-a753-f71199e0271e,-33.4466227,-70.6398056,ChIJy46e1nXFYpYRjy9WfhvYlYQ
SOMMA INÉS DE SUÁREZ,$,680520,"Avenida Pedro De Valdivia 2250, Inés de Suárez, Providencia, RM (Metropolitana)",https://www.portalinmobiliario.com/arriendo/departamento/providencia-metropolitana/888888886-somma-ines-de-suarez-nva#polycard_client=search-nordic&position=8&search_layout=grid&type=item&tracking_id=ce8cf0f5-8250-4d77-bb71-be8a4ef37b8d,-33.442913,-70.60633829999999,ChIJXbkYZ5zPYpYRNh_Xz0jB1eQ
Activa Bezanilla,$,372000,"Bezanilla 1320, Independencia, Hospitales, Independencia, RM (Metropolitana)",https://www.portalinmobiliario.com/arriendo/departamento/independencia-metropolitana/888888400-activa-bezanilla-nva#polycard_client=search-nordic&position=9&search_layout=grid&type=item&tracking_id=88875b3e-6e49-4f22-8fbd-a8d1f92c1cde,-33.4178482,-70.658215,ChIJRfrAcM_FYpYRf9aFICnwo14
Departamento nuevo a estrenar,$,345000,"Santo Domingo 1669, Barrio Brasil, Santiago, RM (Metropolitana)",https://www.portalinmobiliario.com/arriendo/departamento/santiago-metropolitana/2670026273-ronda-santo-domingo-nva#polycard_client=search-nordic&position=10&search_layout=grid&type=item&tracking_id=010fad9b-4c86-4b7b-9bb1-281eebf27f07,-33.4370253,-70.6607617,ChIJE_FEKa7FYpYRY8CfZpSKyHU
FAM Huemul,$,295000,"Centenario 1329, Franklin - Biobío, Santiago, RM (Metropolitana)",https://www.portalinmobiliario.com/arriendo/departamento/santiago-metropolitana/888888824-fam-huemul-nva#polycard_client=search-nordic&position=11&search_layout=grid&type=item&tracking_id=b15decc7-3204-4f71-b5a1-29de0dfe7989,-33.4764151,-70.6500877,ChIJu0b0HgDFYpYR7erVJ6vk0XI
Somma Asturias - Edificio Multifamily,$,790000,"Asturias 77, Metro Escuela Militar, Las Condes, RM (Metropolitana)",https://www.portalinmobiliario.com/arriendo/departamento/las-condes-metropolitana/9999999993-somma-asturias-nva#polycard_client=search-nordic&position=12&search_layout=grid&type=item&tracking_id=9f49c0fb-8013-41b1-8f84-1676b6485965,-33.4153089,-70.58578589999999,ChIJHabRUejPYpYRLoiRk3yQ9rg
Arriendo Depto a pasos del Metro Chile-España en Ñuñoa,$,500700,"Av. Irarrázaval 2899, Plaza Ñuñoa, Ñuñoa, RM (Metropolitana)",https://www.portalinmobiliario.com/arriendo/departamento/nunoa-metropolitana/999999994-somma-plaza-nunoa-nva#polycard_client=search-nordic&position=13&search_layout=grid&type=item&tracking_id=82ab8a26-ac2c-42f9-a71c-c18e7a9f9058,-33.454736,-70.60083209999999,ChIJnchLLZTPYpYRa_RjKmWKSBg
Edificio Inglaterra,$,300000,"Av. Inglaterra 1261, Hospitales, Independencia, RM (Metropolitana)",https://www.portalinmobiliario.com/arriendo/departamento/independencia-metropolitana/899999997-edificio-inglaterra-nva#polycard_client=search-nordic&position=14&search_layout=grid&type=item&tracking_id=e3d5f75a-ff49-4ccc-8f78-c1944fd9cc70,-33.4122111,-70.656859,ChIJFSAzhNrFYpYR0FsoXh7vLPY
INSITU Irarrázaval,$,504824,"Avenida Irarrázaval 2250, Metro Ñuñoa, Ñuñoa, RM (Metropolitana)",https://www.portalinmobiliario.com/arriendo/departamento/nunoa-metropolitana/888888887-insitu-irarrazaval-nva#polycard_client=search-nordic&position=15&search_layout=grid&type=item&tracking_id=6bd94efa-3ce6-4170-b0bc-432ed5d48411,-33.4537121,-70.6075977,ChIJpwPll5HPYpYRSu9IpeSoQOQ
Edificio Argomedo,$,285000,"General Urriola 624, Santa Isabel, Santiago, RM (Metropolitana)",https://www.portalinmobiliario.com/arriendo/departamento/santiago-metropolitana/11340-edificio-argomedo-nva#polycard_client=search-nordic&position=16&search_layout=grid&type=item&tracking_id=ae95f2c9-3ba1-4efe-9b65-f5269316935b,-33.4506825,-70.63796789999999,ChIJi_OPFXHFYpYRB_8RhryUXoA
Ronda Lo Ovalle - La Cisterna,$,290000,"Jorge Cáceres 116, La Cisterna, Chile, Lo Ovalle, La Cisterna, RM (Metropolitana)",https://www.portalinmobiliario.com/arriendo/departamento/la-cisterna-metropolitana/9999999994-ronda-lo-ovalle-nva#polycard_client=search-nordic&position=17&search_layout=grid&type=item&tracking_id=cbb7c6ff-5ce5-4ed3-9851-283214b55aa7,-33.51545,-70.65729929999999,ChIJB4T5oOjaYpYRlZMjwWDdphI
INSITU Echaurren,$,346779,"Gorbea 2159, Santiago, Chile, Barrio República, Santiago, RM (Metropolitana)",https://www.portalinmobiliario.com/arriendo/departamento/santiago-metropolitana/888888368-insitu-echaurren--nva#polycard_client=search-nordic&position=18&search_layout=grid&type=item&tracking_id=edcd95a0-9714-4105-90e6-69bccd8b5136,-33.4529308,-70.66564319999999,ChIJw5u4cQHFYpYRT5GDbhtt9Ss
Nomad Bellet,$,499674,"Antonio Bellet 126, Providencia, Pedro de Valdivia, Providencia, RM (Metropolitana)",https://www.portalinmobiliario.com/arriendo/departamento/providencia-metropolitana/11485-nomad-bellet-nva#polycard_client=search-nordic&position=19&search_layout=grid&type=item&tracking_id=303b0275-ab26-49d1-b262-7803d713619e,-33.426148,-70.61752919999999,ChIJr9G9vGPPYpYRlKc2M8pOSQQ
Nomad Holley,$,614984,"Bucarest 50, Santiago, Providencia, Los Leones, Providencia, RM (Metropolitana)",https://www.portalinmobiliario.com/arriendo/departamento/providencia-metropolitana/11484-nomad-holley-nva#polycard_client=search-nordic&position=20&search_layout=grid&type=item&tracking_id=e041fd27-5982-4ad7-8990-1e6ea3e2986d,-33.4198886,-70.6075563,ChIJGWsqWGjPYpYR7FxacLHhxx8
Condominio Valle Altiplánico,$,645000,"Av. Circunvalación 1458, Avenida Almirante Grau, Calama, Antofagasta",https://www.portalinmobiliario.com/arriendo/departamento/calama-antofagasta/11079-condominio-valle-altiplanico-nva#polycard_client=search-nordic&position=21&search_layout=grid&type=item&tracking_id=901b0a37-30ab-4975-9515-8060644f144e,-22.4462687,-68.91777309999999,EjBBdi4gQWxtdGUuIEdyYXUgMTQ1OCwgQ2FsYW1hLCBBbnRvZmFnYXN0YSwgQ2hpbGUiMRIvChQKEglt65nk5wmslhE5sT2ZnQHGrBCyCyoUChIJPYxy6uAJrJYRRoesvcEvcpY
Excelente Departamento A Pasos Metro Las Rejas,$,420000,"Pje Titán 4880, Santiago, Estación Central, Metro Las Rejas, Estación Central, RM (Metropolitana)",https://www.portalinmobiliario.com/MLC-1560924033-excelente-departamento-a-pasos-metro-las-rejas-_JM#polycard_client=search-nordic&position=22&search_layout=grid&type=item&tracking_id=7e78e4d2-25b7-435d-bb95-f3875413e87b,-33.4602022,-70.7030116,ChIJnwhfzQTFYpYROkFdG3R4TRY
Dpto Amoblado Remodelado 2d+2b Los Militares Cerca Del Metro,$,1037786,"Los Militares 4717, Metro Escuela Militar, Las Condes, RM (Metropolitana)",https://www.portalinmobiliario.com/MLC-2814352114-dpto-amoblado-remodelado-2d2b-los-militares-cerca-del-metro-_JM#polycard_client=search-nordic&position=23&search_layout=grid&type=item&tracking_id=49e66059-d4f9-40af-b0b3-05f2bd285f59,-33.4118467,-70.5802171,ChIJJ41HGSLPYpYRh0vwgaF4Pig
Condominio Espectacular Vista A La Cordillera,$,2950000,"Condominio Mirador Los Trapenses, Los Trapenses, Lo Barnechea, RM (Metropolitana)",https://www.portalinmobiliario.com/MLC-2677909578-condominio-espectacular-vista-a-la-cordillera-_JM#polycard_client=search-nordic&position=24&search_layout=grid&type=item&tracking_id=206286f1-a3a3-489f-97b2-e64b5ef1519d,-33.3425879,-70.5461851,ChIJcUu0IJ7JYpYRliI22aXC3iQ
Depto Amoblado - Linda Vista,$,2500000,"Tabancura - Vitacura, Tabancura, Vitacura, RM (Metropolitana)",https://www.portalinmobiliario.com/MLC-1544477133-depto-amoblado-linda-vista-_JM#polycard_client=search-nordic&position=25&search_layout=grid&type=item&tracking_id=2879ab72-cf45-4fe3-b7a3-01ece650f3fe,-33.3802793,-70.5371426,ChIJk2N1SFLJYpYRh3Yk68INYC0
3d+1b+terraza Depto Nuevo Quinta Normal,$,358000,"Av. Mapocho 3521, Parque Padre Renato Poblete, Quinta Normal, RM (Metropolitana)",https://www.portalinmobiliario.com/MLC-1562441223-3d1bterraza-depto-nuevo-quinta-normal-_JM#polycard_client=search-nordic&position=26&search_layout=grid&type=item&tracking_id=cbc489fc-69e1-4d5f-8e14-aa725b48f208,-33.432922,-70.68255,ChIJMTVAOEbEYpYRi-0lYU3r1og
Céntrico 2d 2b En Suite. Con Estacionamiento Y Bodega.,$,470000,"Eyzaguirre 819, Santiago, San Diego, Santiago, RM (Metropolitana)",https://www.portalinmobiliario.com/MLC-1564629003-centrico-2d-2b-en-suite-con-estacionamiento-y-bodega-_JM#polycard_client=search-nordic&position=27&search_layout=grid&type=item&tracking_id=4c448ef7-4458-42cd-880a-9bcf9afdbfbc,-33.4519989,-70.6470107,ChIJp-cawAzFYpYRzDCa_uSPrz8
El Radal - Raul Labe,$,2350000,"El Radal - Raul Labe, La Dehesa, Lo Barnechea, RM (Metropolitana)",https://www.portalinmobiliario.com/MLC-2692250474-el-radal-raul-labe-_JM#polycard_client=search-nordic&position=28&search_layout=grid&type=item&tracking_id=725b7487-000b-4da8-85ba-fa84a1949ac4,-33.3668549,-70.5177179,EktFbCBSYWRhbCAmIEF2ZW5pZGEgUmHDumwgTGFiYsOpLCBMbyBCYXJuZWNoZWEsIFJlZ2nDs24gTWV0cm9wb2xpdGFuYSwgQ2hpbGUiZiJkChQKEgkN0vlM5MtilhH-cDD2tzRv7BIUChIJDdL5TOTLYpYR_nAw9rc0b-waFAoSCbdgpp3my2KWEZA31rr_Y_GEGhQKEgkjdz1E7MtilhEtH96E76S0kSIKDTufHOwVpdn31Q
Departamento San Diego Id: 145052,$,189995,"San Diego, Franklin - Biobío, Santiago, RM (Metropolitana)",https://www.portalinmobiliario.com/MLC-2810300130-departamento-san-diego-id-145052-_JM#polycard_client=search-nordic&position=29&search_layout=grid&type=item&tracking_id=4890a108-b9c6-47e8-bb6d-bf223ae0e84a,-33.4731674,-70.64793399999999,ChIJw1Zd2jjFYpYRRKUBPkiF-DM
Departamento Isla Picton Id: 38964,$,400000,"Isla Picton, Viña Del Mar, Valparaíso",https://www.portalinmobiliario.com/MLC-1559742883-departamento-isla-picton-id-38964-_JM#polycard_client=search-nordic&position=30&search_layout=grid&type=item&tracking_id=452c5010-3702-4d56-a484-6bc5687feade,-33.0375452,-71.5139591,ChIJL5vnd43eiZYRmWsnbI30WT8
Metro Plaza Egaña/ Nuncio Laghi/mariposa,$,760000,"Nuncio Laghi 5550, Ñuñoa, Chile, Diagonal Oriente, Ñuñoa, RM (Metropolitana)",https://www.portalinmobiliario.com/MLC-2806746038-metro-plaza-egana-nuncio-laghimariposa-_JM#polycard_client=search-nordic&position=31&search_layout=grid&type=item&tracking_id=2b6a86d7-2216-4050-94e0-018f7a097f90,-33.4567435,-70.5734902,EjhOdW5jaW8gTGFnaGkgNTU1MCwgw5F1w7FvYSwgUmVnacOzbiBNZXRyb3BvbGl0YW5hLCBDaGlsZSIxEi8KFAoSCREzUT01zmKWESrxX2OOUQi-EK4rKhQKEgl1yVU9Nc5ilhE41YA33Q9onw
"Arriendo Departamento Nuevo 2d+2b Avenida España, Santiago",$,530000,"Av. España 702, Santiago, Barrio República, Santiago, RM (Metropolitana)",https://www.portalinmobiliario.com/MLC-1556326377-arriendo-departamento-nuevo-2d2b-avenida-espana-santiago-_JM#polycard_client=search-nordic&position=32&search_layout=grid&type=item&tracking_id=b9e7fe34-9c11-4d96-8901-83cbc6b5f45e,-33.4571035,-70.6682823,ChIJ0XIniQLFYpYRcheOqARdKLA
Departamento En Arriendo De 2 Dorm. En Temuco,$,420000,"Hochstetter, Estadio Germán Becker, Temuco, La Araucanía",https://www.portalinmobiliario.com/MLC-1547757495-departamento-en-arriendo-de-2-dorm-en-temuco-_JM#polycard_client=search-nordic&position=33&search_layout=grid&type=item&tracking_id=5c77b6db-418f-4c89-a42c-3508da97d752,-38.7428497,-72.619259,ChIJQ4TpiwbUFJYR-hOT6OKlLAM
Nuevo. Rodrigo De Araya. Estacionamiento,$,450000,"Av. Rodrigo De Araya 2550, Ñuñoa, Estadio Nacional, Ñuñoa, RM (Metropolitana)",https://www.portalinmobiliario.com/MLC-1554868921-nuevo-rodrigo-de-araya-estacionamiento-_JM#polycard_client=search-nordic&position=34&search_layout=grid&type=item&tracking_id=c93f6d92-4e98-43fa-a267-804baba0814e,-33.4738794,-70.6057388,ChIJW_19TOTPYpYReomDfqwZHNY
"Arriendo 2d+2b Carmen 121, Metro Santa Lucía",$,500000,"Carmen 121, Santiago, Santa Isabel, Santiago, RM (Metropolitana)",https://www.portalinmobiliario.com/MLC-2808039090-arriendo-2d2b-carmen-121-metro-santa-lucia-_JM#polycard_client=search-nordic&position=35&search_layout=grid&type=item&tracking_id=d8ec52cb-63d1-49dd-b42a-ec2deebb11ac,-33.4449047,-70.6430051,ChIJEy8DKgDFYpYR7mid2_IutNk
Departamento Hanga Roa Id: 141291,$,320000,"Hanga Roa, Valparaíso, Valparaíso",https://www.portalinmobiliario.com/MLC-1539511953-departamento-hanga-roa-id-141291-_JM#polycard_client=search-nordic&position=36&search_layout=grid&type=item&tracking_id=56d14c00-5c79-4ec0-9ef0-c811e23f0a1c,-33.0629768,-71.5778599,ChIJc-dteYPgiZYRBkwP0opBn3U
¡oportunidad! Depto 1d1b Dcto [id: W3371],$,220000,"Placilla 46, San Alberto Hurtado, Estación Central, RM (Metropolitana)",https://www.portalinmobiliario.com/MLC-2795291536-oportunidad-depto-1d1b-dcto-id-w3371-_JM#polycard_client=search-nordic&position=37&search_layout=grid&type=item&tracking_id=b4b03858-0ab5-4a37-bcc9-86b0fc44ed85,-33.4554469,-70.6943405,ChIJFXP53orEYpYRl5JBpAg4z3U
Oportunidad Única 1d1b La Cisterna [id: W204],$,220000,"Avenida Lo Ovalle 150, Lo Ovalle, La Cisterna, RM (Metropolitana)",https://www.portalinmobiliario.com/MLC-2812928202-oportunidad-unica-1d1b-la-cisterna-id-w204-_JM#polycard_client=search-nordic&position=38&search_layout=grid&type=item&tracking_id=43cc7051-a25b-401f-bf77-1a6fc5db9f9e,-33.5142398,-70.66015689999999,ChIJraa5voHbYpYRrwlBH0jhoEg
Depto. 2d + 1b [id: W145],$,295000,"Avenida Américo Vespucio 4451, Metro Las Torres, Macul, RM (Metropolitana)",https://www.portalinmobiliario.com/MLC-2790884526-depto-2d-1b-id-w145-_JM#polycard_client=search-nordic&position=39&search_layout=grid&type=item&tracking_id=95a5b11b-964c-442e-8cbb-7e8b4f21257e,-33.4966164,-70.58553359999999,ChIJH-y5ZDfQYpYRdakEafBkY_M
Departamento Avenida Los Pajaritos Id: 143851,$,400000,"Avenida Los Pajaritos, Maipú, RM (Metropolitana)",https://www.portalinmobiliario.com/MLC-1558259323-departamento-avenida-los-pajaritos-id-143851-_JM#polycard_client=search-nordic&position=40&search_layout=grid&type=item&tracking_id=f4d72354-0ebd-4fae-b5b0-129d13647225,-33.4860166,-70.7479354,EjdBdi4gTG9zIFBhamFyaXRvcywgTWFpcMO6LCBSZWdpw7NuIE1ldHJvcG9saXRhbmEsIENoaWxlIi4qLAoUChIJX-_46jbDYpYRxtGTgYomSLkSFAoSCT9nLFso3WKWEW2GbJOlnNH8
Arriendo De Departamento Estilo Mariposa - La Florida,$,420000,"Av. Vicuña Mackenna Poniente 5862, La Florida, Metro Mirador, La Florida, RM (Metropolitana)",https://www.portalinmobiliario.com/MLC-2796087030-arriendo-de-departamento-estilo-mariposa-la-florida-_JM#polycard_client=search-nordic&position=41&search_layout=grid&type=item&tracking_id=83eff1a4-10b4-44c7-bd82-30b11f451224,-33.5095599,-70.6121407,ChIJCZ1YKHLQYpYRFvN66IWclGk
A Pasos De Metro Irarrazaval,$,691857,"A Pasos De Metro Irarrazaval, Metro Irarrázaval, Ñuñoa, RM (Metropolitana)",https://www.portalinmobiliario.com/MLC-2808286978-a-pasos-de-metro-irarrazaval-_JM#polycard_client=search-nordic&position=42&search_layout=grid&type=item&tracking_id=bbf21552-b5fe-4084-9e54-e8941862b9e2,-33.4535516,-70.6289426,ChIJH0cEtGTFYpYR3eSvSQ_lC5c
Departamento Amoblado En Arriendo En Providencia,$,1200000,"Los Leones Con Lota, Los Leones, Providencia, RM (Metropolitana)",https://www.portalinmobiliario.com/MLC-2772731868-departamento-amoblado-en-arriendo-en-providencia-_JM#polycard_client=search-nordic&position=43&search_layout=grid&type=item&tracking_id=bc43155e-4b5f-4ebd-91c8-df863c411ee9,-33.4221261,-70.6084382,ChIJO8HruWjPYpYRlqRYlsciaec
Departamento Inglaterra Id: 142864,$,190000,"Inglaterra, Metro Mirador, La Florida, RM (Metropolitana)",https://www.portalinmobiliario.com/MLC-2815399438-departamento-inglaterra-id-142864-_JM#polycard_client=search-nordic&position=44&search_layout=grid&type=item&tracking_id=67e0358f-3341-449d-ac1d-0d47b735f6be,-33.5226882,-70.5987142,ChIJlZDV7CXRYpYRrPO-VsvmdQM
Departamento En Arriendo En Concepción,$,1000000,"Angol, Concepción, Centro de Concepción, Concepción, Biobío",https://www.portalinmobiliario.com/MLC-1561700845-departamento-en-arriendo-en-concepcion-_JM#polycard_client=search-nordic&position=45&search_layout=grid&type=item&tracking_id=2a586fb5-98f5-4e16-a140-6b032a32f2e2,-36.8177781,-73.0545312,ChIJZyRrTsa1aZYRim_uT3zkUGA
Departamento En Arriendo De 1 Dorm. En San Pedro De La Paz,$,430000,"Pedro Aguirre Cerda, San Pedro De La Paz, San Pedro De La Paz, Biobío",https://www.portalinmobiliario.com/MLC-1551426885-departamento-en-arriendo-de-1-dorm-en-san-pedro-de-la-paz-_JM#polycard_client=search-nordic&position=46&search_layout=grid&type=item&tracking_id=a0fc8be1-a73c-4ad4-b663-e908e159b65e,-36.8388305,-73.0972781,ChIJB0vwzgLKaZYRr2g03NMGDto
Departamento Claudio Arrau Id: 145142,$,475000,"Claudio Arrau, Barrancas, Pudahuel, RM (Metropolitana)",https://www.portalinmobiliario.com/MLC-2814308946-departamento-claudio-arrau-id-145142-_JM#polycard_client=search-nordic&position=47&search_layout=grid&type=item&tracking_id=51d6b073-4c8b-4fb9-ad7d-9ec6331abc34,-33.4506513,-70.7580297,ChIJIyB84q_DYpYR1wzROewerlg
"200 Mil X Primer Mes, Después 250 Mil",$,250000,"San Francisco 294, Santiago, Bulnes, Santiago, RM (Metropolitana)",https://www.portalinmobiliario.com/MLC-2824939114-200-mil-x-primer-mes-despues-250-mil-_JM#polycard_client=search-nordic&position=48&search_layout=grid&type=item&tracking_id=3bf99fdb-b8eb-4363-abc2-85245afbf864,-33.4483037,-70.6466615,ChIJvabGyA_FYpYRvrYqadhfCzc
Moderno Y Bello Cerca De Metro Las Rejas Y Ecuador,$,270000,"Purísima 50, Estación Central, Metro Ecuador, Estación Central, RM (Metropolitana)",https://www.portalinmobiliario.com/MLC-2797540696-moderno-y-bello-cerca-de-metro-las-rejas-y-ecuador-_JM#polycard_client=search-nordic&position=1&search_layout=grid&type=item&tracking_id=75b5543a-5429-4497-885a-45d87f36b835,-33.4547259,-70.6996839,ChIJCYLayTzFYpYRg6Uq6Mjq9rs
Departamento Inglaterra Id: 142865,$,190000,"Inglaterra, Metro Mirador, La Florida, RM (Metropolitana)",https://www.portalinmobiliario.com/MLC-2815466012-departamento-inglaterra-id-142865-_JM#polycard_client=search-nordic&position=2&search_layout=grid&type=item&tracking_id=abcd6c21-668f-4628-8bb1-4b90226a9095,-33.5226882,-70.5987142,ChIJlZDV7CXRYpYRrPO-VsvmdQM
Departamento Primera Avenida Id: 134713,$,560000,"Primera Avenida, Ciudad del Niño, San Miguel, RM (Metropolitana)",https://www.portalinmobiliario.com/MLC-1563590407-departamento-primera-avenida-id-134713-_JM#polycard_client=search-nordic&position=3&search_layout=grid&type=item&tracking_id=cf60c23d-ff56-4412-afbd-1312452899df,-33.5030018,-70.6608111,ChIJDyDBXdraYpYRK_koQskGaCI
"Disponible, Luminoso, 3d,1b + 1 Bodega, Recién Remodelado",$,420000,"Eleuterio Ramírez 750, Santiago, San Diego, Santiago, RM (Metropolitana)",https://www.portalinmobiliario.com/MLC-2802113044-disponible-luminoso-3d1b-1-bodega-recien-remodelado-_JM#polycard_client=search-nordic&position=4&search_layout=grid&type=item&tracking_id=061c62ed-4710-404f-ad18-f7b14f2226e6,-33.4482962,-70.64588239999999,ChIJM9p5LgvFYpYRH9dW9sEpe7k
"Hermoso Depto 3d2b1e Vista Bahia Viña, Sin Amoblar",$,550000,"C. Del Agua 1050, Viña Del Mar, Recreo, Viña Del Mar, Valparaíso",https://www.portalinmobiliario.com/MLC-2820619216-hermoso-depto-3d2b1e-vista-bahia-vina-sin-amoblar-_JM#polycard_client=search-nordic&position=5&search_layout=grid&type=item&tracking_id=165737da-40d7-49b1-9c50-c44f73eca34a,-33.0334042,-71.5684278,EjNDLiBkZWwgQWd1YSAxMDUwLCBWacOxYSBkZWwgTWFyLCBWYWxwYXJhw61zbywgQ2hpbGUiMRIvChQKEgl_NYfLA96JlhGM2GAjng70LhCaCCoUChIJefi0UALeiZYRR8uUQGf2h1w
Departamento San Petersburgo Id: 142990,$,290000,"San Petersburgo, Ciudad del Niño, San Miguel, RM (Metropolitana)",https://www.portalinmobiliario.com/MLC-2816607656-departamento-san-petersburgo-id-142990-_JM#polycard_client=search-nordic&position=6&search_layout=grid&type=item&tracking_id=925315c0-c086-4b63-8026-e34e4419936d,-33.5097547,-70.656716,ChIJI9HHycLaYpYRyMtezN5j0KU
Departamento Pedro Riveros Id: 140120,$,364500,"Pedro Riveros, Valle Lo Campino, Quilicura, RM (Metropolitana)",https://www.portalinmobiliario.com/MLC-1558325495-departamento-pedro-riveros-id-140120-_JM#polycard_client=search-nordic&position=7&search_layout=grid&type=item&tracking_id=52d3fa6a-0dd8-4ec6-8c3d-7cb4ff429d07,-33.37767,-70.7276464,ChIJlWCazCjBYpYRYrYoMlYrIkM
Departamento Missouri Id: 144138,$,350000,"Missouri, Metro Macul, Macul, RM (Metropolitana)",https://www.portalinmobiliario.com/MLC-1565528045-departamento-missouri-id-144138-_JM#polycard_client=search-nordic&position=8&search_layout=grid&type=item&tracking_id=97fa95ea-7008-45e4-837a-f0c6af33d19d,-33.5062658,-70.5929635,ChIJxfuHW0HQYpYRhrI6wNsjCy8
Departamento Ignacio Carrera Pinto Id: 141937,$,414000,"Ignacio Carrera Pinto, Centro de Villa Alemana, Villa Alemana, Valparaíso",https://www.portalinmobiliario.com/MLC-2794537112-departamento-ignacio-carrera-pinto-id-141937-_JM#polycard_client=search-nordic&position=9&search_layout=grid&type=item&tracking_id=fb46cbec-7a68-4b94-bd05-096bbe244c9c,-33.0504831,-71.3653512,ChIJV1X-rpDXiZYRqhT_JiLNpgg
Departamento Avenida Lo Ovalle Id: 41485,$,450000,"Avenida Lo Ovalle, Ciudad del Niño, San Miguel, RM (Metropolitana)",https://www.portalinmobiliario.com/MLC-1563586945-departamento-avenida-lo-ovalle-id-41485-_JM#polycard_client=search-nordic&position=10&search_layout=grid&type=item&tracking_id=b30b67db-f6d5-440b-8b83-e4e139a28945,-33.5097547,-70.656716,ChIJI9HHycLaYpYRyMtezN5j0KU
Departamento Gabriel González Videla Id: 143121,$,440000,"Gabriel González Videla, Nueva San Martín, Maipú, RM (Metropolitana)",https://www.portalinmobiliario.com/MLC-2814509284-departamento-gabriel-gonzalez-videla-id-143121-_JM#polycard_client=search-nordic&position=11&search_layout=grid&type=item&tracking_id=7fa7488c-624a-44b8-80a4-1401624edd7a,-33.52460240000001,-70.7804526,ElJHYWJyaWVsIEdvbnrDoWxleiBWaWRlbGEgJiBOdWV2YSBTYW4gTWFydMOtbiwgTWFpcMO6LCBSZWdpw7NuIE1ldHJvcG9saXRhbmEsIENoaWxlImYiZAoUChIJ1Zh7vjvdYpYR57MsJ8D_KAwSFAoSCdWYe7473WKWEeezLCfA_ygMGhQKEgnFet3ZP91ilhFjB9--0xPQSBoUChIJmSEYaDvdYpYRfIz-aL5hcs0iCg04jQTsFZLCz9U
Departamento Vicuña Mackenna Id: 39583,$,500000,"Vicuña Mackenna, Barrio Oriente - Las Tres Pascualas, Concepción, Biobío",https://www.portalinmobiliario.com/MLC-2813321122-departamento-vicuna-mackenna-id-39583-_JM#polycard_client=search-nordic&position=12&search_layout=grid&type=item&tracking_id=7746f8b6-5dc4-49f9-bb5b-49997365d8c7,-36.8110571,-73.0459739,ChIJjaBDc7S1aZYRgyHTufX7JUo
Departamento Avenida Costa De Montemar Id: 122182,$,460000,"Avenida Costa De Montemar, Costas de Montemar, Concón, Valparaíso",https://www.portalinmobiliario.com/MLC-2818373118-departamento-avenida-costa-de-montemar-id-122182-_JM#polycard_client=search-nordic&position=13&search_layout=grid&type=item&tracking_id=09856ea3-8d8c-4fe4-bd34-33219ce8f1dd,-32.933613,-71.5458609,ChIJwft5_8rCiZYRMjW7cArPuqE
Departamento Villasana Id: 144717,$,350000,"Villasana, Parque Padre Renato Poblete, Quinta Normal, RM (Metropolitana)",https://www.portalinmobiliario.com/MLC-1563501721-departamento-villasana-id-144717-_JM#polycard_client=search-nordic&position=14&search_layout=grid&type=item&tracking_id=9ad32bd4-dcce-4a77-b002-ee7ce8e9b1a6,-33.4250395,-70.6784918,ChIJDVh2HzfEYpYRIFhjGgW_lVU
Departamento Avenida Vicuña Mackenna Poniente Id: 143345,$,290000,"Avenida Vicuña Mackenna Poniente, Metro Mirador, La Florida, RM (Metropolitana)",https://www.portalinmobiliario.com/MLC-2806729896-departamento-avenida-vicuna-mackenna-poniente-id-143345-_JM#polycard_client=search-nordic&position=15&search_layout=grid&type=item&tracking_id=dffaa74e-699f-4ac7-ab6c-698a1a69f47e,-33.5132631,-70.6060067,ChIJPRHbdG_QYpYRLbQ21l9RxA4
Departamento Bellavista Id: 125213,$,380000,"Bellavista, Plaza Vespucio, La Florida, RM (Metropolitana)",https://www.portalinmobiliario.com/MLC-1563602491-departamento-bellavista-id-125213-_JM#polycard_client=search-nordic&position=16&search_layout=grid&type=item&tracking_id=bd657daa-73f9-4f1f-9187-8471e1dfd669,-33.5190503,-70.5983213,ChIJqxd4mGDQYpYRYogTE5Vnrao
Departamento Jorge Ross Id: 82036,$,394000,"Jorge Ross, Viña Del Mar, Valparaíso",https://www.portalinmobiliario.com/MLC-2812284460-departamento-jorge-ross-id-82036-_JM#polycard_client=search-nordic&position=17&search_layout=grid&type=item&tracking_id=518e7dd0-8c61-4b26-bde2-f8631f2f84b2,-33.0348151,-71.5049578,ChIJkVQZQZTeiZYRkeczHzDl-Pk
Departamento En Arriendo En Penco,$,307492,"Lomas De Landa, Penco, Concepción, Biobío",https://www.portalinmobiliario.com/MLC-2813221494-departamento-en-arriendo-en-penco-_JM#polycard_client=search-nordic&position=18&search_layout=grid&type=item&tracking_id=43e137a9-6768-49eb-ace0-4fb93608cc0c,-36.7671419,-73.0107191,ChIJZUqc_ZW0aZYRGkZj7rF2wYk
Departamento General Bulnes Id: 45313,$,350000,"General Bulnes, Barrio Yungay, Santiago, RM (Metropolitana)",https://www.portalinmobiliario.com/MLC-2821927894-departamento-general-bulnes-id-45313-_JM#polycard_client=search-nordic&position=19&search_layout=grid&type=item&tracking_id=4594798c-a88f-4293-a1f7-f24cfee70cb3,-33.4410947,-70.6701341,EjRHcmFsLiBCdWxuZXMsIFNhbnRpYWdvLCBSZWdpw7NuIE1ldHJvcG9saXRhbmEsIENoaWxlIi4qLAoUChIJhQS-P03EYpYR-NgtWF089d8SFAoSCVV53sVTxGKWES4sESS51bJO
Departamento La Travesía Torreg Id: 116833,$,360000,"La Travesía Torreg, Pudahuel, RM (Metropolitana)",https://www.portalinmobiliario.com/MLC-2818360262-departamento-la-travesia-torreg-id-116833-_JM#polycard_client=search-nordic&position=20&search_layout=grid&type=item&tracking_id=410778fc-d2ce-4658-b0af-8eef20340c5c,-33.4586784,-70.7313458,ElFMYSBUcmF2ZXPDrWEgJiBBdmVuaWRhIExhcyBUb3JyZXMsIDkwNzE2OTkgUHVkYWh1ZWwsIFJlZ2nDs24gTWV0cm9wb2xpdGFuYSwgQ2hpbGUiZiJkChQKEgm7UiZ8ncNilhG3B9D5OVFmGRIUChIJu1ImfJ3DYpYRtwfQ-TlRZhkaFAoSCfso4tClw2KWEZxA-LBwCkPjGhQKEglN_UHwnMNilhHuZkh74TTl_iIKDWCcDuwVzkDX1Q
Departamento San Sebastián Id: 87641,$,922476,"San Sebastián, Barrio El Golf, Las Condes, RM (Metropolitana)",https://www.portalinmobiliario.com/MLC-1562280975-departamento-san-sebastian-id-87641-_JM#polycard_client=search-nordic&position=21&search_layout=grid&type=item&tracking_id=6b6a51a9-3ad4-4469-87bd-0a0ebfd193e8,-33.4151013,-70.600573,ChIJwzy1tUHPYpYRjkI80gUE5pc
Departamento En Arriendo En Concepción,$,390000,"Canto Del Valle, Concepción, Lomas de San Sebastián, Concepción, Biobío",https://www.portalinmobiliario.com/MLC-1560209753-departamento-en-arriendo-en-concepcion-_JM#polycard_client=search-nordic&position=22&search_layout=grid&type=item&tracking_id=70948312-e5de-497f-a7b5-5d003470b2ea,-36.7803385,-73.0453608,ChIJWUDRlxy1aZYRhk7RpaJp3j0
Departamento Avenida Mapocho Id: 142266,$,280000,"Avenida Mapocho, Quinta Normal, RM (Metropolitana)",https://www.portalinmobiliario.com/MLC-1563491161-departamento-avenida-mapocho-id-142266-_JM#polycard_client=search-nordic&position=23&search_layout=grid&type=item&tracking_id=03d209e9-a3ce-4eeb-bef6-cb544f6bb378,-33.4297618,-70.6974063,EjhBdi4gTWFwb2NobywgUXVpbnRhIE5vcm1hbCwgUmVnacOzbiBNZXRyb3BvbGl0YW5hLCBDaGlsZSIuKiwKFAoSCR0P5goUxGKWEYPPPoo2jereEhQKEgmd49dYEMRilhEZDryB0BdYaA
Departamento Avenida Mapocho Id: 111211,$,288000,"Avenida Mapocho, Quinta Normal, RM (Metropolitana)",https://www.portalinmobiliario.com/MLC-1558572949-departamento-avenida-mapocho-id-111211-_JM#polycard_client=search-nordic&position=24&search_layout=grid&type=item&tracking_id=7d5b184c-5d7f-4e28-ae68-89e88607dfba,-33.4297618,-70.6974063,EjhBdi4gTWFwb2NobywgUXVpbnRhIE5vcm1hbCwgUmVnacOzbiBNZXRyb3BvbGl0YW5hLCBDaGlsZSIuKiwKFAoSCR0P5goUxGKWEYPPPoo2jereEhQKEgmd49dYEMRilhEZDryB0BdYaA
Departamento En Arriendo De 1 Dorm. En Concepción,$,280000,"Chacabuco, Concepción, Centro de Concepción, Concepción, Biobío",https://www.portalinmobiliario.com/MLC-1558463029-departamento-en-arriendo-de-1-dorm-en-concepcion-_JM#polycard_client=search-nordic&position=25&search_layout=grid&type=item&tracking_id=addcb1fb-28e9-4a1a-89a9-0d9dd4ec3eae,-36.8302823,-73.0473313,ChIJSfIEpNa1aZYRJva899DRMss
Arriendo Providencia Dpto 2d2b C/ Estacionamiento+2 Terrazas,$,1037786,"Francisco Bilbao 2518, Providencia, RM (Metropolitana)",https://www.portalinmobiliario.com/MLC-2825424262-arriendo-providencia-dpto-2d2b-c-estacionamiento2-terrazas-_JM#polycard_client=search-nordic&position=26&search_layout=grid&type=item&tracking_id=c1c3d62f-5b46-42ee-8180-b66cbfb301b5,-33.4362436,-70.59825099999999,ChIJH5jUS3XPYpYRW2OjORoMyEM
Departamento Estero Maitenlahue Id: 136794,$,470000,"Estero Maitenlahue, Reñaca Alto, Viña Del Mar, Valparaíso",https://www.portalinmobiliario.com/MLC-2801988868-departamento-estero-maitenlahue-id-136794-_JM#polycard_client=search-nordic&position=27&search_layout=grid&type=item&tracking_id=5fd7353c-3d1d-4aad-bb17-663a7b2f6ade,-32.9951171,-71.4987405,ChIJDx90QBXciZYRD0JmI7GWG2I
Departamento Miraflores Id: 144605,$,550000,"Miraflores, Lorenzo Arenas, Concepción, Biobío",https://www.portalinmobiliario.com/MLC-1558990507-departamento-miraflores-id-144605-_JM#polycard_client=search-nordic&position=28&search_layout=grid&type=item&tracking_id=ac9c2070-5eb6-4844-9d34-15a28f599bfb,-36.8201352,-73.0443904,ChIJO8a70s21aZYRmCYhUrc3y0Q
Departamento Caballo Chileno Id: 112806,$,400000,"Caballo Chileno, La Florida, RM (Metropolitana)",https://www.portalinmobiliario.com/MLC-1562053431-departamento-caballo-chileno-id-112806-_JM#polycard_client=search-nordic&position=29&search_layout=grid&type=item&tracking_id=e172507d-fcd5-432e-b204-ec2f4517e5ef,-33.5129195,-70.5896441,ChIJ1RgfI1vQYpYRolGUt4_V62k
Departamento Avenida Punta Arenas Id: 142119,$,520000,"Avenida Punta Arenas, Plaza Vespucio, La Florida, RM (Metropolitana)",https://www.portalinmobiliario.com/MLC-2802136096-departamento-avenida-punta-arenas-id-142119-_JM#polycard_client=search-nordic&position=30&search_layout=grid&type=item&tracking_id=fc288ec0-45bf-46d2-be4b-5e454562afd3,-33.5377524,-70.6102231,El1Bdi4gQW3DqXJpY28gVmVzcHVjaW8gJiBBdi4gUHVudGEgQXJlbmFzLCBMYSBGbG9yaWRhLCBMYSBHcmFuamEsIFJlZ2nDs24gTWV0cm9wb2xpdGFuYSwgQ2hpbGUiZiJkChQKEgkbvbmYmtBilhFFbLUqt_6bChIUChIJG725mJrQYpYRRWy1Krf-mwoaFAoSCR0KkcD5xGKWEdmBsO8mvThGGhQKEgmFS204fdBilhEneRGyFszzbCIKDYyLAuwVKbzp1Q
Departamento Avenida Chacabuco Id: 144409,$,330000,"Avenida Chacabuco, Centro de Concepción, Concepción, Biobío",https://www.portalinmobiliario.com/MLC-1562739275-departamento-avenida-chacabuco-id-144409-_JM#polycard_client=search-nordic&position=31&search_layout=grid&type=item&tracking_id=2d10ccab-2808-4afb-b4e0-4510832ec066,-36.8302823,-73.0473313,ChIJSfIEpNa1aZYRJva899DRMss
Departamento San Luis Id: 144859,$,461238,"San Luis, Cerro Placeres, Valparaíso, Valparaíso",https://www.portalinmobiliario.com/MLC-2807406342-departamento-san-luis-id-144859-_JM#polycard_client=search-nordic&position=32&search_layout=grid&type=item&tracking_id=190d5b3c-f55d-4165-a744-395583107bcb,-33.0405528,-71.5933252,ChIJMw3nvrfgiZYRJS3FT_EO9iE
Departamento Froilán Roa Id: 143940,$,252000,"Froilán Roa, La Florida, RM (Metropolitana)",https://www.portalinmobiliario.com/MLC-1553174433-departamento-froilan-roa-id-143940-_JM#polycard_client=search-nordic&position=33&search_layout=grid&type=item&tracking_id=5f7bd95d-6b62-4432-a1ba-aa15825f5557,-33.5083984,-70.6018892,EjZGcm9pbMOhbiBSb2EsIExhIEZsb3JpZGEsIFJlZ2nDs24gTWV0cm9wb2xpdGFuYSwgQ2hpbGUiLiosChQKEgkPcY_0QdBilhHYpaS6b9uZMxIUChIJlZDV7CXRYpYRrPO-VsvmdQM
Departamento Isla Melinka Id: 135287,$,460000,"Isla Melinka, Viña Del Mar, Valparaíso",https://www.portalinmobiliario.com/MLC-2798896972-departamento-isla-melinka-id-135287-_JM#polycard_client=search-nordic&position=34&search_layout=grid&type=item&tracking_id=4931af71-8f7b-4871-8698-6e252f4865a4,-33.036199,-71.5146515,ChIJDQuewI3eiZYReWzUoG_DDpw
Departamento José María Escrivá De Balaguer Id: 144657,$,700000,"José María Escrivá De Balaguer, Montemar, Concón, Valparaíso",https://www.portalinmobiliario.com/MLC-2813242506-departamento-jose-maria-escriva-de-balaguer-id-144657-_JM#polycard_client=search-nordic&position=35&search_layout=grid&type=item&tracking_id=5607f3b6-8c33-45a2-b437-a103631c7252,-32.9501975,-71.5370602,Ej5Kb3PDqSBNYXLDrWEgRXNjcml2w6EgZGUgQmFsYWd1ZXIsIENvbmPDs24sIFZhbHBhcmHDrXNvLCBDaGlsZSIuKiwKFAoSCQGTgGw73YmWETB9MhcyI4sWEhQKEgl3L_Koe9uJlhHk6zCh5bzwQA
Departamento 2 Oriente Id: 142662,$,1200000,"2 Oriente, Libertad, Viña Del Mar, Valparaíso",https://www.portalinmobiliario.com/MLC-2818321366-departamento-2-oriente-id-142662-_JM#polycard_client=search-nordic&position=36&search_layout=grid&type=item&tracking_id=70cd40a4-ce99-4742-9b5c-180ad2abae76,-33.0157307,-71.5475129,ChIJ98Q6nN3diZYRYUrf54s-lXA
Departamento Glaciar Grey Id: 101470,$,400000,"Glaciar Grey, Colinas de Oro, Quilpué, Valparaíso",https://www.portalinmobiliario.com/MLC-1562803299-departamento-glaciar-grey-id-101470-_JM#polycard_client=search-nordic&position=37&search_layout=grid&type=item&tracking_id=b13de228-21c8-4d06-95da-786e475151fb,-33.0721916,-71.4355661,ChIJw9pgqIzYiZYRElNqpoc_2Tw
Departamento Santa Ana Id: 40980,$,325000,"Santa Ana, Parque Brasil, La Granja, RM (Metropolitana)",https://www.portalinmobiliario.com/MLC-2816519396-departamento-santa-ana-id-40980-_JM#polycard_client=search-nordic&position=38&search_layout=grid&type=item&tracking_id=df8b5625-f4be-45df-a2e5-744aaa7c2980,-33.5219124,-70.61212119999999,ChIJ23Ja8xTQYpYRHWhuMNsYlaQ
Departamento Froilán Roa Id: 138642,$,375000,"Froilán Roa, La Florida, RM (Metropolitana)",https://www.portalinmobiliario.com/MLC-2813325622-departamento-froilan-roa-id-138642-_JM#polycard_client=search-nordic&position=39&search_layout=grid&type=item&tracking_id=71e1e428-a921-46f2-8362-047f95ec0b49,-33.5083984,-70.6018892,EjZGcm9pbMOhbiBSb2EsIExhIEZsb3JpZGEsIFJlZ2nDs24gTWV0cm9wb2xpdGFuYSwgQ2hpbGUiLiosChQKEgkPcY_0QdBilhHYpaS6b9uZMxIUChIJlZDV7CXRYpYRrPO-VsvmdQM
Departamento Avenida Santa Rosa Id: 16409,$,370000,"Avenida Santa Rosa, Ciudad del Niño, San Miguel, RM (Metropolitana)",https://www.portalinmobiliario.com/MLC-1563517311-departamento-avenida-santa-rosa-id-16409-_JM#polycard_client=search-nordic&position=40&search_layout=grid&type=item&tracking_id=f98de440-0157-43d4-ab92-af0001c1f40a,-33.4979494,-70.6393526,EjdBdi4gU3RhLiBSb3NhLCBTYW4gTWlndWVsLCBSZWdpw7NuIE1ldHJvcG9saXRhbmEsIENoaWxlIi4qLAoUChIJDbPiiGLaYpYRJZeeJyfKUBkSFAoSCV8MBazX2mKWEffY3jrByIOw
Departamento Froilán Roa Id: 144124,$,350000,"Froilán Roa, La Florida, RM (Metropolitana)",https://www.portalinmobiliario.com/MLC-2818367428-departamento-froilan-roa-id-144124-_JM#polycard_client=search-nordic&position=41&search_layout=grid&type=item&tracking_id=54478d2c-1e66-4737-b47e-609caded087e,-33.5083984,-70.6018892,EjZGcm9pbMOhbiBSb2EsIExhIEZsb3JpZGEsIFJlZ2nDs24gTWV0cm9wb2xpdGFuYSwgQ2hpbGUiLiosChQKEgkPcY_0QdBilhHYpaS6b9uZMxIUChIJlZDV7CXRYpYRrPO-VsvmdQM
Departamento José Joaquín Vallejos Id: 144476,$,430000,"José Joaquín Vallejos, El Llano, San Miguel, RM (Metropolitana)",https://www.portalinmobiliario.com/MLC-1560613067-departamento-jose-joaquin-vallejos-id-144476-_JM#polycard_client=search-nordic&position=42&search_layout=grid&type=item&tracking_id=5a10b7f6-019c-45c6-aab5-7a3e103ba23d,-33.482703,-70.6492315,ChIJEUqRkDbFYpYR733e__hhkRo
Departamento Colón Id: 145056,$,485000,"Colón, Talcahuano, Biobío",https://www.portalinmobiliario.com/MLC-1561741803-departamento-colon-id-145056-_JM#polycard_client=search-nordic&position=43&search_layout=grid&type=item&tracking_id=14abe3c4-eba5-430a-b566-19f509a708ef,-36.7400577,-73.0994762,ChIJadPyREU1aJYRMTLTJ6cnQHY
Departamento Calle Pudeto Id: 127210,$,365000,"Calle Pudeto, Plaza Vespucio, La Florida, RM (Metropolitana)",https://www.portalinmobiliario.com/MLC-1564653401-departamento-calle-pudeto-id-127210-_JM#polycard_client=search-nordic&position=44&search_layout=grid&type=item&tracking_id=95cbdf15-72b5-4e9b-a096-69e10c46baec,-33.5175129,-70.6031803,ChIJNcBHmWbQYpYRJVpzMpGo-aA
Departamento María Auxiliadora Id: 145183,$,370000,"María Auxiliadora, El Llano, San Miguel, RM (Metropolitana)",https://www.portalinmobiliario.com/MLC-1562462455-departamento-maria-auxiliadora-id-145183-_JM#polycard_client=search-nordic&position=45&search_layout=grid&type=item&tracking_id=a876eadf-e21c-4c1b-af32-ce36715accbc,-33.4893907,-70.6518557,ChIJqxT5BPXbYpYR2irbyjwLfG4
Departamento Manuel Claro Vial Id: 105440,$,810000,"Manuel Claro Vial, Parque Padre Alberto Hurtado, Las Condes, RM (Metropolitana)",https://www.portalinmobiliario.com/MLC-2814805068-departamento-manuel-claro-vial-id-105440-_JM#polycard_client=search-nordic&position=46&search_layout=grid&type=item&tracking_id=3c3da3e6-0372-47a0-abfa-cc2ce3bbca8e,-33.43178,-70.5453808,ChIJe59sA2DOYpYRhpD6mzVeDDE
Departamento Lago Pirihueico Id: 137815,$,320000,"Lago Pirihueico, Plaza Vespucio, La Florida, RM (Metropolitana)",https://www.portalinmobiliario.com/MLC-2747915406-departamento-lago-pirihueico-id-137815-_JM#polycard_client=search-nordic&position=47&search_layout=grid&type=item&tracking_id=650db81e-7b1b-4b31-a628-5ddfe782f69d,-33.5190503,-70.5983213,ChIJqxd4mGDQYpYRYogTE5Vnrao
Departamento Avenida Lo Ovalle Id: 125776,$,450000,"Avenida Lo Ovalle, Ciudad del Niño, San Miguel, RM (Metropolitana)",https://www.portalinmobiliario.com/MLC-2802123312-departamento-avenida-lo-ovalle-id-125776-_JM#polycard_client=search-nordic&position=48&search_layout=grid&type=item&tracking_id=61d4202d-f8d0-43ec-95cf-dabf7db8cda6,-33.5097547,-70.656716,ChIJI9HHycLaYpYRyMtezN5j0KU
